{
  "type": "FeatureCollection",
  "features": [
    {
      "type": "Feature",
      "geometry": {
        "type": "Point",
        "coordinates": [
          -8.639000000000001,
          41.177000000000014
        ]
      },
      "properties": {
        "nome": "Ampliação do Parque de Requesende",
        "area_ha_planeada": 12
      }
    },
    {
      "type": "Feature",
      "geometry": {
        "type": "Point",
        "coordinates": [
          -8.615,
          41.1578
        ]
      },
      "properties": {
        "nome": "Parque Urbano da Lapa",
        "area_ha_planeada": 4
      }
    },
    {
      "type": "Feature",
      "geometry": {
        "type": "Point",
        "coordinates": [
          -8.659799999999992,
          41.14750000000001
        ]
      },
      "properties": {
        "nome": "Jardim de Sobreiras",
        "area_ha_planeada": 1.8
      }
    },
    {
      "type": "Feature",
      "geometry": {
        "type": "Point",
        "coordinates": [
          -8.6297,
          41.1743
        ]
      },
      "properties": {
        "nome": "Parque da Prelada",
        "area_ha_planeada": 21
      }
    },
    {
      "type": "Feature",
      "geometry": {
        "type": "Point",
        "coordinates": [
          -8.5941,
          41.1413
        ]
      },
      "properties": {
        "nome": "Parque das Fontainhas/Carquejeiras",
        "area_ha_planeada": 14
      }
    },
    {
      "type": "Feature",
      "geometry": {
        "type": "Point",
        "coordinates": [
          -8.588000000000005,
          41.16200000000001
        ]
      },
      "properties": {
        "nome": "Parque das Antas",
        "area_ha_planeada": 5
      }
    },
    {
      "type": "Feature",
      "geometry": {
        "type": "Point",
        "coordinates": [
          -8.5829,
          41.1464
        ]
      },
      "properties": {
        "nome": "Parque de Noeda",
        "area_ha_planeada": 8
      }
    },
    {
      "type": "Feature",
      "geometry": {
        "type": "Point",
        "coordinates": [
          -8.5824,
          41.167
        ]
      },
      "properties": {
        "nome": "Parque de Contumil",
        "area_ha_planeada": 7
      }
    },
    {
      "type": "Feature",
      "geometry": {
        "type": "Point",
        "coordinates": [
          -8.6753,
          41.1585
        ]
      },
      "properties": {
        "nome": "Parque da Ervilha",
        "area_ha_planeada": 6
      }
    },
    {
      "type": "Feature",
      "geometry": {
        "type": "Point",
        "coordinates": [
          -8.658540288853615,
          41.16697960102153
        ]
      },
      "properties": {
        "nome": "Parque Desportivo de Ramalde",
        "area_ha_planeada": 5
      }
    },
    {
      "type": "Feature",
      "geometry": {
        "type": "Point",
        "coordinates": [
          -8.5741,
          41.1596
        ]
      },
      "properties": {
        "nome": "Parque de Cartes",
        "area_ha_planeada": 5
      }
    },
    {
      "type": "Feature",
      "geometry": {
        "type": "Point",
        "coordinates": [
          -8.6686,
          41.1731
        ]
      },
      "properties": {
        "nome": "Parque Urbano de Aldoar",
        "area_ha_planeada": 4
      }
    },
    {
      "type": "Feature",
      "geometry": {
        "type": "Point",
        "coordinates": [
          -8.6148,
          41.1729
        ]
      },
      "properties": {
        "nome": "Corredor Verde da Charca de Salgueiros",
        "area_ha_planeada": 4
      }
    },
    {
      "type": "Feature",
      "geometry": {
        "type": "Point",
        "coordinates": [
          -8.5786,
          41.1712
        ]
      },
      "properties": {
        "nome": "Jardim frontal à Escola Nicolau Nasoni",
        "area_ha_planeada": 4
      }
    },
    {
      "type": "Feature",
      "geometry": {
        "type": "Point",
        "coordinates": [
          -8.6808,
          41.1643
        ]
      },
      "properties": {
        "nome": "Jardim Nun'Alvares",
        "area_ha_planeada": 2
      }
    },
    {
      "type": "Feature",
      "geometry": {
        "type": "Point",
        "coordinates": [
          -8.6655,
          41.1674
        ]
      },
      "properties": {
        "nome": "Jardim da Vilarinha",
        "area_ha_planeada": 2
      }
    },
    {
      "type": "Feature",
      "geometry": {
        "type": "Point",
        "coordinates": [
          -8.577499999999993,
          41.15479999999999
        ]
      },
      "properties": {
        "nome": "Jardim Monte da Bela",
        "area_ha_planeada": 2
      }
    },
    {
      "type": "Feature",
      "geometry": {
        "type": "Point",
        "coordinates": [
          -8.647500000000008,
          41.15150000000003
        ]
      },
      "properties": {
        "nome": "Corredor ribeirinho do Aleixo",
        "area_ha_planeada": 1.8
      }
    }
  ]
}