{
  "type": "FeatureCollection",
  "features": [
    {
      "type": "Feature",
      "geometry": {
        "type": "Point",
        "coordinates": [
          -8.639000000000001,
          41.177000000000014
        ]
      },
      "properties": {
        "nome": "Ampliação do Parque de Requesende",
        "area_ha_planeada": 12
      }
    },
    {
      "type": "Feature",
      "geometry": {
        "type": "Point",
        "coordinates": [
          -8.625999999999994,
          41.150999999999975
        ]
      },
      "properties": {
        "nome": "Parque Urbano da Lapa",
        "area_ha_planeada": 4
      }
    },
    {
      "type": "Feature",
      "geometry": {
        "type": "Point",
        "coordinates": [
          -8.659799999999992,
          41.14750000000001
        ]
      },
      "properties": {
        "nome": "Jardim de Sobreiras",
        "area_ha_planeada": 1.8
      }
    },
    {
      "type": "Feature",
      "geometry": {
        "type": "Point",
        "coordinates": [
          -8.63032660588802,
          41.17372059652521
        ]
      },
      "properties": {
        "nome": "Parque da Prelada",
        "area_ha_planeada": 21
      }
    },
    {
      "type": "Feature",
      "geometry": {
        "type": "Point",
        "coordinates": [
          -8.601999999999997,
          41.144499999999965
        ]
      },
      "properties": {
        "nome": "Parque das Fontainhas/Carquejeiras",
        "area_ha_planeada": 14
      }
    },
    {
      "type": "Feature",
      "geometry": {
        "type": "Point",
        "coordinates": [
          -8.588000000000005,
          41.16200000000001
        ]
      },
      "properties": {
        "nome": "Parque das Antas",
        "area_ha_planeada": 5
      }
    },
    {
      "type": "Feature",
      "geometry": {
        "type": "Point",
        "coordinates": [
          -8.582000000000003,
          41.158000000000015
        ]
      },
      "properties": {
        "nome": "Parque de Noeda",
        "area_ha_planeada": 8
      }
    },
    {
      "type": "Feature",
      "geometry": {
        "type": "Point",
        "coordinates": [
          -8.579999999999998,
          41.163
        ]
      },
      "properties": {
        "nome": "Parque de Contumil",
        "area_ha_planeada": 7
      }
    },
    {
      "type": "Feature",
      "geometry": {
        "type": "Point",
        "coordinates": [
          -8.671,
          41.159000000000006
        ]
      },
      "properties": {
        "nome": "Parque da Ervilha",
        "area_ha_planeada": 6
      }
    },
    {
      "type": "Feature",
      "geometry": {
        "type": "Point",
        "coordinates": [
          -8.658540288853615,
          41.16697960102153
        ]
      },
      "properties": {
        "nome": "Parque Desportivo de Ramalde",
        "area_ha_planeada": 5
      }
    },
    {
      "type": "Feature",
      "geometry": {
        "type": "Point",
        "coordinates": [
          -8.573607082265328,
          41.158827248011974
        ]
      },
      "properties": {
        "nome": "Parque de Cartes",
        "area_ha_planeada": 5
      }
    },
    {
      "type": "Feature",
      "geometry": {
        "type": "Point",
        "coordinates": [
          -8.657,
          41.167999999999985
        ]
      },
      "properties": {
        "nome": "Parque Urbano de Aldoar",
        "area_ha_planeada": 4
      }
    },
    {
      "type": "Feature",
      "geometry": {
        "type": "Point",
        "coordinates": [
          -8.584463330186484,
          41.165594147351136
        ]
      },
      "properties": {
        "nome": "Corredor Verde da Charca de Salgueiros",
        "area_ha_planeada": 4
      }
    },
    {
      "type": "Feature",
      "geometry": {
        "type": "Point",
        "coordinates": [
          -8.585000000000004,
          41.16499999999999
        ]
      },
      "properties": {
        "nome": "Jardim frontal à Escola Nicolau Nasoni",
        "area_ha_planeada": 4
      }
    },
    {
      "type": "Feature",
      "geometry": {
        "type": "Point",
        "coordinates": [
          -8.637999999999998,
          41.149999999999984
        ]
      },
      "properties": {
        "nome": "Jardim da R. de D. Pedro de Meneses",
        "area_ha_planeada": 4
      }
    },
    {
      "type": "Feature",
      "geometry": {
        "type": "Point",
        "coordinates": [
          -8.635000000000002,
          41.15
        ]
      },
      "properties": {
        "nome": "Jardim Nun'Alvares",
        "area_ha_planeada": 2
      }
    },
    {
      "type": "Feature",
      "geometry": {
        "type": "Point",
        "coordinates": [
          -8.649999999999999,
          41.165000000000006
        ]
      },
      "properties": {
        "nome": "Jardim da Vilarinha",
        "area_ha_planeada": 2
      }
    },
    {
      "type": "Feature",
      "geometry": {
        "type": "Point",
        "coordinates": [
          -8.577499999999993,
          41.15479999999999
        ]
      },
      "properties": {
        "nome": "Jardim Monte da Bela",
        "area_ha_planeada": 2
      }
    },
    {
      "type": "Feature",
      "geometry": {
        "type": "Point",
        "coordinates": [
          -8.647500000000008,
          41.15150000000003
        ]
      },
      "properties": {
        "nome": "Corredor ribeirinho do Aleixo",
        "area_ha_planeada": 1.8
      }
    }
  ]
}